City,Lat,Lng,Max Temp,Humidity,Cloudiness,Windspeed,Country,Date
Vila Velha,-20.3297,-40.2925,18.97,94,75,1.54,BR,1624154572
New Norfolk,-42.7826,147.0587,9.72,67,9,0.91,AU,1624154572
Busselton,-33.65,115.3333,12.83,83,31,5.95,AU,1624154082
Severo-Kuril'sk,50.6789,156.125,6.91,87,100,1.67,RU,1624154067
Vaini,-21.2,-175.2,26.09,83,20,4.12,TO,1624154097
Qaanaaq,77.484,-69.3632,3.02,58,8,0.8,GL,1624154072
Vao,-22.6667,167.4833,22.65,74,85,9.43,NC,1624154573
Lompoc,34.6391,-120.4579,27.08,83,1,6.17,US,1624153951
San Quintín,30.4833,-115.95,18.53,83,14,5.93,MX,1624154573
Ancud,-41.8697,-73.8203,8.46,84,100,2.47,CL,1624154574
Rikitea,-23.1203,-134.9692,24.09,74,3,7.99,PF,1624154068
Ushuaia,-54.8,-68.3,3.81,81,20,8.75,AR,1624153803
Tiksi,71.6872,128.8694,13.91,58,27,1.36,RU,1624154089
Ribeira Grande,38.5167,-28.7,20.02,93,89,4.18,PT,1624154080
Saint Paul Harbor,57.79,-152.4072,8.73,100,90,3.6,US,1624154069
Jamestown,42.097,-79.2353,17.94,93,75,0.45,US,1624154083
Mahébourg,-20.4081,57.7,22.22,62,53,8.75,MU,1624154575
Walvis Bay,-22.9575,14.5053,17.93,54,1,2.35,NA,1624154575
Wamba,8.9333,8.6,22.26,87,100,0.35,NG,1624154575
Cape Town,-33.9258,18.4232,20.06,49,0,0.89,ZA,1624153829
Meridian,43.6121,-116.3915,33.98,20,16,0.89,US,1624154295
São Filipe,14.8961,-24.4956,22.42,83,8,2.18,CV,1624154108
George Town,5.4112,100.3354,27.96,86,20,2.24,MY,1624154076
Bredasdorp,-34.5322,20.0403,8.62,87,19,2.57,ZA,1624154093
Spassk,52.747,87.7545,14.42,97,100,0.88,RU,1624154576
Butaritari,3.0707,172.7902,27.68,71,9,0.94,KI,1624154083
Lebu,-37.6167,-73.65,8.85,79,96,1.85,CL,1624154073
Sinnamary,5.3833,-52.95,25.59,84,27,3.7,GF,1624154577
Makkah al Mukarramah,21.4267,39.8261,30.34,29,9,2.74,SA,1624154577
Valparaíso,-33.0393,-71.6273,12.8,76,0,4.63,CL,1624154577
Nyzhni Sirohozy,46.8484,34.3804,18.18,83,93,5.08,UA,1624154578
Ostrovnoy,68.0531,39.5131,10.85,75,100,3.22,RU,1624154106
Itoman,26.1247,127.6694,30.01,84,40,4.12,JP,1624154578
Albany,42.6001,-73.9662,23.36,92,99,3.93,US,1624153940
Tuktoyaktuk,69.4541,-133.0374,15.4,39,16,2.9,CA,1624154579
Upernavik,72.7868,-56.1549,2.48,72,41,4.18,GL,1624154113
Saint-Pierre,-21.3393,55.4781,20.16,74,20,4.63,RE,1624154579
Atuona,-9.8,-139.0333,26.56,73,15,9.61,PF,1624154077
Kruisfontein,-34.0033,24.7314,15.86,31,24,4.49,ZA,1624154580
Tsiroanomandidy,-18.7667,46.0333,14.66,74,67,2.02,MG,1624154580
Santa Marta,11.2408,-74.199,29.99,85,20,3.13,CO,1624154358
Novopokrovka,49.8425,36.5477,18.21,71,98,5.42,UA,1624154082
Moctezuma,29.8,-109.6667,37.31,18,9,9.74,MX,1624154580
Miraflores,19.2167,-98.8083,18.9,85,100,1.97,MX,1624154105
Chui,-33.6971,-53.4616,12.54,95,99,3.88,UY,1624154581
Nyurba,63.2842,118.3319,28.44,41,9,2.32,RU,1624154581
Kapaa,22.0752,-159.319,28.99,76,14,0.89,US,1624154070
Vestmannaeyjar,63.4427,-20.2734,6.57,75,9,10.12,IS,1624154582
Mount Gambier,-37.8333,140.7667,12.36,59,85,1.46,AU,1624154582
Chicama,-7.8447,-79.1469,19.18,84,30,2.7,PE,1624154582
Shiyan,32.6475,110.7781,20.64,64,100,2.11,CN,1624154582
Ulladulla,-35.35,150.4667,16.49,71,95,6.74,AU,1624154583
Barrow,71.2906,-156.7887,2.01,80,90,6.17,US,1624154101
Buala,-8.145,159.5921,29.59,64,12,1.53,SB,1624154583
Boddam,57.4667,-1.7833,12.21,77,46,3.06,GB,1624154584
Taltal,-25.4,-70.4833,15.03,78,99,0.83,CL,1624154584
Waikuku,-43.3,172.6833,8.38,94,100,1.79,NZ,1624154584
Bethel,41.3712,-73.414,21.14,90,100,0.45,US,1624154585
Weligama,5.9667,80.4167,27.18,78,44,4.99,LK,1624154585
Cidreira,-30.1811,-50.2056,15.09,95,100,6.17,BR,1624154074
Teguise,29.0605,-13.564,17.12,72,20,7.2,ES,1624154585
Mayo,38.8876,-76.5119,25.23,87,90,0.0,US,1624154586
Nishihara,26.1842,127.7558,29.6,84,40,4.12,JP,1624154586
Avarua,-21.2078,-159.775,25.03,69,40,6.17,CK,1624154073
Naze,28.3667,129.4833,25.03,72,100,3.61,JP,1624154586
Punta Arenas,-53.15,-70.9167,4.06,81,0,8.23,CL,1624153822
Sept-Îles,50.2001,-66.3821,11.7,97,90,0.89,CA,1624154587
Bima,-8.4667,118.7167,30.36,58,31,1.94,ID,1624154587
Riyadh,24.6877,46.7219,26.08,18,0,2.57,SA,1624154364
Caceres,39.522,-6.3748,14.33,79,98,2.72,ES,1624154588
Kavaratti,10.5669,72.642,28.27,75,100,9.39,IN,1624154588
Cayenne,4.9333,-52.3333,27.27,84,40,0.89,GF,1624154405
Lavrentiya,65.5833,-171.0,10.46,64,89,2.06,RU,1624154588
Bluff,-46.6,168.3333,10.41,83,34,5.54,NZ,1624154070
Marrakesh,31.6315,-8.0083,17.04,67,0,2.57,MA,1624154548
Ouahigouya,13.5828,-2.4216,30.85,40,62,3.45,BF,1624154589
Dikson,73.5069,80.5464,0.55,79,70,3.92,RU,1624154589
Hofn,64.2539,-15.2082,6.53,87,100,1.52,IS,1624154590
Mataura,-46.1927,168.8643,10.3,82,53,2.1,NZ,1624154077
Rawson,-43.3002,-65.1023,4.66,76,41,4.65,AR,1624154590
Cockburn Town,21.4612,-71.1419,27.16,84,100,8.82,TC,1624154092
Sitka,57.0531,-135.33,17.35,58,27,1.56,US,1624154590
Pisco,-13.7,-76.2167,17.79,87,65,1.19,PE,1624154591
Hamilton,39.1834,-84.5333,25.13,87,100,2.7,US,1624154047
Kérouané,9.2667,-9.0167,20.6,98,98,1.48,GN,1624154591
Westerland,54.9079,8.3033,14.01,88,40,4.63,DE,1624154592
Huarmey,-10.0681,-78.1522,19.2,86,60,4.15,PE,1624154592
Kahului,20.8947,-156.47,28.01,67,40,9.26,US,1624153818
Jizan,17.3333,42.6667,29.26,76,76,0.32,SA,1624154409
Ambon City,-3.6954,128.1814,26.08,89,40,3.09,ID,1624154089
Graham,47.0529,-122.2943,25.69,47,1,0.0,US,1624154593
Leningradskiy,69.3833,178.4167,7.86,77,50,2.83,RU,1624154593
Yellowknife,62.456,-114.3525,14.29,44,75,5.14,CA,1624154087
Hithadhoo,-0.6,73.0833,28.66,68,59,5.77,MV,1624154088
Kaitangata,-46.2817,169.8464,9.85,89,99,3.97,NZ,1624154070
Emerald,-23.5333,148.1667,17.97,45,3,6.69,AU,1624154108
Broome,42.2506,-75.833,17.58,96,90,1.34,US,1624154594
Shiloh,38.5614,-89.8973,25.2,78,100,4.93,US,1624154402
Nouakchott,18.0858,-15.9785,24.96,71,1,8.14,MR,1624154581
Sawtell,-30.3833,153.1,19.18,62,75,8.75,AU,1624154594
Puerto Ayora,-0.7393,-90.3518,23.08,89,81,3.13,EC,1624154108
Saskylakh,71.9167,114.0833,29.45,24,22,6.32,RU,1624154095
Lorengau,-2.0226,147.2712,29.31,68,29,2.56,PG,1624154106
Norman Wells,65.282,-126.8329,21.02,32,40,7.72,CA,1624154099
Ada,43.4166,-116.1262,33.64,16,1,5.81,US,1624154595
Provideniya,64.3833,-173.3,14.96,45,19,1.8,RU,1624154094
Lüderitz,-26.6481,15.1594,21.01,31,5,4.03,NA,1624154596
Khatanga,71.9667,102.5,27.43,31,3,6.17,RU,1624154084
Lázaro Cárdenas,17.9583,-102.2,25.71,87,100,2.93,MX,1624154596
Aragarças,-15.8975,-52.2508,21.64,51,5,0.93,BR,1624154596
Cabrobó,-8.5142,-39.31,21.86,67,0,7.01,BR,1624154597
Kuruman,-27.4524,23.4325,9.61,63,3,2.29,ZA,1624154440
Hobart,-42.8794,147.3294,9.92,79,75,1.34,AU,1624153971
São João da Barra,-21.6403,-41.0511,21.72,76,5,9.24,BR,1624154597
Xichang,27.8964,102.2634,20.19,86,98,1.75,CN,1624154598
Carnarvon,-24.8667,113.6333,19.23,40,0,0.51,AU,1624154598
Lakes Entrance,-37.8811,147.981,13.99,85,64,1.29,AU,1624154598
Port-Cartier,50.0334,-66.8654,11.53,99,100,2.74,CA,1624154599
Bundaberg,-24.85,152.35,19.53,48,0,3.06,AU,1624154599
Rosarito,32.3333,-117.0333,27.8,71,25,3.65,MX,1624154599
Airai,-8.9266,125.4092,20.63,64,66,1.95,TL,1624154601
Hilo,19.7297,-155.09,27.38,84,36,1.79,US,1624154088
Saint-Philippe,-21.3585,55.7679,19.56,74,79,6.07,RE,1624154088
Bila Tserkva,49.8094,30.1121,17.54,96,100,3.91,UA,1624154601
Morondava,-20.2833,44.2833,20.54,65,41,5.22,MG,1624154601
Port Elizabeth,-33.918,25.5701,8.16,76,0,1.54,ZA,1624153932
Palimbang,6.2106,124.1894,29.49,66,100,1.56,PH,1624154602
Zhigansk,66.7697,123.3711,23.45,43,83,0.71,RU,1624154602
Padang,-0.9492,100.3543,27.89,65,99,0.4,ID,1624154495
Ilhabela,-23.7781,-45.3581,20.07,89,100,1.3,BR,1624154603
Thompson,55.7435,-97.8558,10.09,93,90,3.6,CA,1624154075
Shelburne,44.0787,-80.2041,18.65,86,0,2.59,CA,1624154470
Klyuchi,52.2667,79.1667,11.08,61,100,3.05,RU,1624154603
Kota Bharu,6.1333,102.2386,25.78,78,96,1.56,MY,1624154435
Sydney,-33.8679,151.2073,15.44,89,75,0.45,AU,1624153986
Nogliki,51.8333,143.1667,17.95,52,6,3.2,RU,1624154604
Umeå,63.8284,20.2597,8.96,100,90,2.57,SE,1624154604
Kaniama,-7.5667,24.1833,17.66,52,4,2.09,CD,1624154604
Chokurdakh,70.6333,147.9167,20.33,31,10,4.89,RU,1624154086
Tocopilla,-22.092,-70.1979,17.97,70,100,1.19,CL,1624154605
Aquiraz,-3.9014,-38.3911,27.32,80,54,3.67,BR,1624154605
Aleksandrovskoye,44.7142,43.0008,18.08,70,60,4.4,RU,1624154605
Touros,-5.1989,-35.4608,24.02,85,4,5.26,BR,1624154606
Vardø,70.3705,31.1107,6.87,84,95,1.08,NO,1624154606
Fairbanks,64.8378,-147.7164,20.89,68,98,0.45,US,1624154440
Klaksvík,62.2266,-6.589,8.51,88,100,6.13,FO,1624154096
Sayyan,15.1718,44.3244,16.72,21,28,1.43,YE,1624154607
Port Alfred,-33.5906,26.891,19.08,42,7,5.02,ZA,1624154107
Paamiut,61.994,-49.6678,5.21,93,100,2.75,GL,1624154607
East London,-33.0153,27.9116,18.41,39,6,2.74,ZA,1624154087
Yumen,40.2833,97.2,25.22,20,97,5.35,CN,1624154608
Karratha,-20.7377,116.8463,21.79,46,1,5.97,AU,1624154608
Flinders,-34.5833,150.8552,15.1,79,82,4.47,AU,1624154608
Nema,57.5067,50.5011,18.93,84,56,3.29,RU,1624154609
Mangochi,-14.4782,35.2645,15.34,85,4,3.1,MW,1624154609
Westport,41.1415,-73.3579,22.09,92,90,0.89,US,1624154609
Nome,64.5011,-165.4064,20.62,51,1,5.14,US,1624153948
Kumul,42.8,93.45,28.95,15,22,2.53,CN,1624154610
Altamira,-3.2033,-52.2064,21.7,97,15,1.38,BR,1624154610
Granada,37.1882,-3.6067,14.7,83,0,0.45,ES,1624154610
Egvekinot,66.3167,-179.1667,10.36,52,65,1.49,RU,1624154610
Itarema,-2.9248,-39.9167,24.81,84,11,4.59,BR,1624154611
Port Moresby,-9.4431,147.1797,27.83,65,99,4.85,PG,1624154611
Novovorontsovka,47.5004,33.9175,20.77,73,99,8.86,UA,1624154611
Goderich,43.7501,-81.7165,17.73,73,1,2.2,CA,1624154411
Longyearbyen,78.2186,15.6401,3.91,81,75,11.83,SJ,1624154091
Faya,18.3851,42.4509,20.84,20,98,0.34,SA,1624154612
Pacific Grove,36.6177,-121.9166,29.43,86,33,1.79,US,1624154424
Nouadhibou,20.931,-17.0347,19.03,81,0,10.66,MR,1624154612
Galesong,-5.3166,119.3661,28.01,67,30,0.61,ID,1624154612
Saint George,37.1041,-113.5841,41.46,11,57,1.34,US,1624154412
Batagay,67.6333,134.6333,29.01,23,100,2.04,RU,1624154613
Labytnangi,66.6572,66.4183,9.4,79,100,8.48,RU,1624154613
Coyhaique,-45.5752,-72.0662,3.97,81,75,2.57,CL,1624154104
Kasongo-Lunda,-6.4667,16.8167,17.28,43,0,0.51,CD,1624154614
Novikovo,51.1537,37.8879,14.82,87,4,3.52,RU,1624154614
Balkanabat,39.5108,54.3671,27.95,22,0,4.64,TM,1624154614
Hays,30.0502,-98.0336,30.51,58,8,4.38,US,1624154432
Harindānga,22.0383,88.3214,27.99,92,100,2.32,IN,1624154615
Cabo San Lucas,22.8909,-109.9124,35.28,75,4,7.52,MX,1624154376
Urengoy,65.9667,78.3667,10.75,52,8,2.59,RU,1624154615
San Policarpo,12.1791,125.5072,29.82,68,100,3.27,PH,1624154616
Safi,32.2994,-9.2372,17.63,73,8,6.52,MA,1624154616
Dunedin,-45.8742,170.5036,11.0,92,100,5.81,NZ,1624154108
Rognan,67.0953,15.3878,9.08,90,81,0.73,NO,1624154616
Verkhnyaya Inta,65.9811,60.3094,3.97,84,100,10.27,RU,1624154617
Ambilobe,-13.2,49.05,19.13,83,57,1.82,MG,1624154617
Okhotsk,59.3833,143.3,13.36,66,100,8.01,RU,1624154617
Hermanus,-34.4187,19.2345,19.94,45,42,3.5,ZA,1624154072
Oussouye,12.485,-16.5469,24.86,75,100,3.71,SN,1624154618
Russell,32.3502,-85.1999,24.6,88,40,3.6,US,1624154618
Lenine,45.2986,35.7771,20.96,89,0,5.87,UA,1624154618
Bjørnevatn,69.6672,29.9847,10.19,76,75,1.03,NO,1624154619
Lutry,46.5024,6.6865,25.07,84,48,1.64,CH,1624154619
Beroroha,-21.6667,45.1667,17.24,78,0,2.61,MG,1624154619
Greensburg,40.3015,-79.5389,22.06,87,75,0.89,US,1624154403
Fort Nelson,58.8053,-122.7002,23.71,32,41,0.84,CA,1624154620
Bambous Virieux,-20.3428,57.7575,22.29,61,68,8.9,MU,1624154620
Ayagoz,47.9714,80.4392,7.44,79,100,7.72,KZ,1624154620
Hasaki,35.7333,140.8333,23.16,95,100,8.72,JP,1624154072
Nikolskoye,59.7035,30.7861,20.94,77,0,2.32,RU,1624154621
Toora-Khem,52.4675,96.11,21.96,44,62,1.24,RU,1624154621
Province of Mantua,45.1667,10.7833,24.83,82,30,0.89,IT,1624154622
Belaya Gora,68.5333,146.4167,22.7,35,94,5.6,RU,1624154622
Tilichiki,60.4667,166.1,10.01,60,100,1.61,RU,1624154622
Roald,62.5833,6.1333,12.87,87,90,5.14,NO,1624154623
Pangkalanbuun,-2.6833,111.6167,23.32,99,100,0.22,ID,1624154623
Dukat,62.55,155.55,10.62,53,91,5.09,RU,1624154624
San Andrés,12.5847,-81.7006,27.91,84,19,6.93,CO,1624154624
Jinchang,38.4953,102.1739,19.65,44,100,3.63,CN,1624154075
Xining,36.6167,101.7667,14.87,53,100,0.34,CN,1624154624
Maracaí,-22.6106,-50.6672,16.61,85,94,2.93,BR,1624154625
Port Hardy,50.6996,-127.4199,13.19,92,100,2.41,CA,1624154435
Priladozhskiy,59.85,31.4833,20.81,32,0,2.83,RU,1624154625
Deloraine,-41.5333,146.6667,9.09,64,6,0.89,AU,1624154625
Pangnirtung,66.1451,-65.7125,4.96,89,100,1.4,CA,1624154626
Abadan,38.0507,58.2056,26.26,23,0,2.97,TM,1624154626
Tara,56.8944,74.371,12.44,61,47,3.09,RU,1624154626
Soc Trang,9.6033,105.98,29.98,63,99,5.33,VN,1624154627
Maniitsoq,65.4167,-52.9,4.11,97,100,10.68,GL,1624154627
Vredendal,-31.6683,18.5012,18.79,32,5,4.16,ZA,1624154628
Kollam,8.8833,76.6,26.93,83,77,4.12,IN,1624154542
Bud,39.447,-86.1758,26.05,87,53,3.97,US,1624154628
Najrān,17.4924,44.1277,25.17,15,33,2.57,SA,1624154628
Cabinda,-5.55,12.2,22.67,91,32,2.69,AO,1624154419
Ucluelet,48.9329,-125.5528,23.36,82,77,0.89,CA,1624154480
Esperance,-33.8667,121.9,14.42,51,45,7.59,AU,1624154629
Sisophon,13.5859,102.9737,30.24,66,37,4.58,KH,1624154629
Bengkulu,-3.8004,102.2655,27.11,69,93,1.5,ID,1624154090
Pasni,25.2631,63.471,28.7,71,84,0.63,PK,1624154630
San Patricio,28.017,-97.5169,29.38,68,83,5.49,US,1624154630
Pevek,69.7008,170.3133,4.33,85,19,1.37,RU,1624154103
Tual,-5.6667,132.75,27.28,78,77,8.15,ID,1624154630
Chaparral,3.7232,-75.4832,19.96,90,74,2.68,CO,1624154631
Abu Dhabi,24.4667,54.3667,32.01,84,0,0.51,AE,1624154631
Seoul,37.5683,126.9778,26.66,38,6,4.4,KR,1624154555
Dajal,29.5577,70.3762,35.28,35,0,5.76,PK,1624154632
Myitkyina,25.3833,97.4,25.85,92,91,0.52,MM,1624154632
Atar,20.5169,-13.0499,27.16,17,0,5.01,MR,1624154632
Margate,51.3813,1.3862,14.84,98,97,0.89,GB,1624154633
Salekhard,66.53,66.6019,9.43,83,100,8.13,RU,1624154633
Praia da Vitória,38.7333,-27.0667,20.98,88,100,6.75,PT,1624154633
Souillac,-20.5167,57.5167,21.69,66,26,8.26,MU,1624154634
South Valley,35.0101,-106.6781,33.77,15,40,6.17,US,1624154634
Bardsīr,29.9227,56.5743,17.47,15,0,2.4,IR,1624154634
Mitú,1.1983,-70.1733,21.98,98,90,0.42,CO,1624154635
San Ramon,37.7799,-121.978,34.74,51,0,3.58,US,1624154433
Arrondissement de Figeac,44.75,1.9167,18.86,98,100,1.62,FR,1624154635
Sémbé,1.6481,14.5806,22.08,81,48,0.49,CG,1624154635
Gorin,51.1983,136.6669,23.18,34,87,1.78,RU,1624154636
Juba,4.8517,31.5825,19.77,97,74,1.74,SS,1624154636
Point Pedro,9.8167,80.2333,28.89,74,100,5.34,LK,1624154636
Vidim,56.4088,103.1106,18.99,77,17,1.09,RU,1624154636
Torrington,41.8007,-73.1212,21.91,82,100,0.45,US,1624154637
Springdale,36.1867,-94.1288,27.07,72,1,2.57,US,1624154524
Clyde River,70.4692,-68.5914,1.13,100,90,1.03,CA,1624154637
Buenaventura,3.8801,-77.0312,24.15,95,100,1.13,CO,1624154638
Kutum,14.2,24.6667,25.14,30,63,3.06,SD,1624154638
Yinchuan,38.4681,106.2731,27.9,18,100,2.09,CN,1624154638
Yerbogachën,61.2767,108.0108,22.32,49,73,2.21,RU,1624154639
Castro,-24.7911,-50.0119,12.7,96,97,3.27,BR,1624154096
Ponta do Sol,32.6667,-17.1,19.28,76,10,2.51,PT,1624154101
La Sarre,48.8002,-79.1996,12.23,90,68,2.0,CA,1624154639
Ketchikan,55.3422,-131.6461,18.26,55,1,6.17,US,1624154639
Paithan,19.4833,75.3833,25.41,70,19,7.5,IN,1624154640
Arraial do Cabo,-22.9661,-42.0278,21.53,79,9,13.8,BR,1624154100
Kaliua,-5.0606,31.7936,19.31,52,98,3.74,TZ,1624154640
Arica,-18.475,-70.3042,17.13,77,90,3.09,CL,1624154372
Te Anau,-45.4167,167.7167,7.19,66,6,1.06,NZ,1624154640
Guilin,25.2819,110.2864,29.14,81,100,1.25,CN,1624154641
Maribo,54.7766,11.5002,17.19,93,41,3.38,DK,1624154641
Isangel,-19.55,169.2667,26.94,74,98,4.68,VU,1624154642
Geraldton,-28.7667,114.6,15.63,62,40,6.69,AU,1624154642
Poum,-20.2333,164.0167,23.44,70,35,5.75,NC,1624154086
Nanortalik,60.1432,-45.2371,5.48,80,100,4.59,GL,1624154642
Oistins,13.0667,-59.5333,26.98,82,95,7.09,BB,1624154643
Agirish,61.9247,63.0231,6.49,61,100,9.11,RU,1624154643
Dolores,-36.3132,-57.6792,4.08,71,1,0.55,AR,1624154643
Svay Rieng,11.0879,105.7993,31.41,55,48,4.84,KH,1624154644
Kathmandu,27.7167,85.3167,23.12,88,75,1.03,NP,1624154616
Zhanakorgan,43.9098,67.2495,19.47,22,0,10.83,KZ,1624154644
Atasū,48.6814,71.6433,13.44,42,89,4.67,KZ,1624154645
Bhaderwah,32.9784,75.7186,20.66,57,2,0.99,IN,1624154645
Barcelos,41.5388,-8.6151,14.08,89,100,6.03,PT,1624154406
Labuhan,-6.8844,112.2051,27.95,72,44,2.66,ID,1624154099
Sørland,67.667,12.6934,8.35,81,100,6.51,NO,1624154645
Kouqian,43.6391,126.4578,16.12,83,100,1.05,CN,1624154646
Ko Samui,9.5357,99.9357,28.27,76,93,5.59,TH,1624154646
Mariehamn,60.0973,19.9348,14.92,94,0,2.57,AX,1624154646
Merauke,-8.4667,140.3333,28.96,62,12,5.08,ID,1624154112
Baykit,61.67,96.37,23.92,44,6,3.37,RU,1624154647
Clifton Springs,-38.15,144.5667,14.41,76,4,4.63,AU,1624154647
Hokitika,-42.7167,170.9667,12.86,63,48,4.72,NZ,1624154647
Fonte Boa,-2.4959,-66.2662,22.66,98,71,0.74,BR,1624154648
Ahipara,-35.1667,173.1667,16.16,85,31,7.89,NZ,1624154648
Port Blair,11.6667,92.75,29.02,84,40,3.09,IN,1624154068
Guayaramerín,-10.8368,-65.3614,20.98,83,26,1.23,BO,1624154648
Sabang,5.8933,95.3214,28.59,73,100,6.66,ID,1624154649
Mar del Plata,-38.0023,-57.5575,6.74,68,0,0.45,AR,1624154080
Samarai,-10.6167,150.6667,26.62,73,100,6.49,PG,1624154649
Bereket,39.2446,55.5154,24.05,24,0,5.33,TM,1624154650
España,12.3841,122.499,28.79,77,100,6.05,PH,1624154650
Cibitoke Province,-2.8833,29.25,14.84,84,48,1.73,BI,1624154650
Chebenki,51.9337,55.7077,14.86,75,4,3.49,RU,1624154651
Belmonte,-15.8631,-38.8828,21.28,83,89,4.8,BR,1624154651
Francisco Sá,-16.4758,-43.4883,17.45,76,5,5.23,BR,1624154651
Matara,5.9485,80.5353,27.04,79,39,4.72,LK,1624154652
Inírida,3.8653,-67.9239,23.23,97,92,0.34,CO,1624154652
Poso,-1.3959,120.7524,29.91,61,86,0.67,ID,1624154652
Grindavik,63.8424,-22.4338,6.06,75,75,7.72,IS,1624154076
Auki,-8.7676,160.7034,29.36,63,87,1.4,SB,1624154653
Mackay,-21.15,149.2,22.25,44,45,3.57,AU,1624154653
Nahrin,36.0649,69.1334,25.02,17,0,1.13,AF,1624154654
Dingle,10.9995,122.6711,29.82,70,100,4.56,PH,1624154654
Umm Hājar,13.2954,19.6966,28.2,59,97,5.35,TD,1624154654
Coos Bay,43.3665,-124.2179,30.47,79,6,1.34,US,1624154500
Bantogon,6.5333,124.0333,28.47,68,100,1.7,PH,1624154655
Vanderhoof,54.0166,-124.0198,21.06,30,5,0.6,CA,1624154655
Omboué,-1.5746,9.2618,23.77,84,13,3.71,GA,1624154655
Ilulissat,69.2167,-51.1,7.01,65,68,1.54,GL,1624154656
Katsuura,35.1333,140.3,23.06,92,99,7.21,JP,1624154109
Caruray,10.3094,119.0128,31.06,70,94,3.17,PH,1624154656
Hobyo,5.3505,48.5268,24.63,80,9,10.6,SO,1624154656
Monrovia,6.3005,-10.7969,25.18,87,100,3.7,LR,1624154094
Florø,61.5996,5.0328,9.98,93,46,0.0,NO,1624154657
Kommunisticheskiy,61.6789,64.4819,6.42,64,100,8.02,RU,1624154657
Talnakh,69.4865,88.3972,8.87,91,100,1.13,RU,1624154658
Karasjok,69.4719,25.5112,9.06,73,100,5.1,NO,1624154658
Puerto Escondido,15.85,-97.0667,28.46,57,40,0.0,MX,1624154658
Fortuna,40.5982,-124.1573,33.44,68,1,0.89,US,1624154098
Aklavik,68.2191,-135.0107,26.46,26,48,4.34,CA,1624154105
Alyangula,-13.8483,136.4192,24.71,53,100,6.78,AU,1624154659
Dillon,34.4166,-79.3712,26.38,65,100,5.62,US,1624154659
Kargasok,59.0556,80.8572,6.8,79,100,3.68,RU,1624154660
Manokwari,-0.8667,134.0833,27.82,70,24,1.74,ID,1624154660
Kedrovyy,56.1667,91.8167,19.23,81,94,3.79,RU,1624154660
Cherskiy,68.75,161.3,13.39,57,99,6.15,RU,1624154085
Yong’an,39.6957,113.6871,23.07,22,100,2.5,CN,1624154661
Babu,24.4167,111.5167,30.51,70,100,1.41,CN,1624154661
Zelenchukskaya,43.858,41.5894,16.28,69,20,2.42,RU,1624154661
Tasiilaq,65.6145,-37.6368,-1.54,67,37,2.22,GL,1624154101
Port Augusta,-32.5,137.7667,15.95,46,0,1.52,AU,1624154662
Balanacan,13.5289,121.8677,30.64,73,100,1.61,PH,1624154662
Hambantota,6.1241,81.1185,25.19,94,20,1.03,LK,1624154662
Hanmer Springs,-42.5167,172.8167,5.18,99,100,1.43,NZ,1624154663
Muravlenko,63.7898,74.523,10.36,70,93,5.91,RU,1624154663
Stornoway,58.2093,-6.3865,11.07,93,100,0.51,GB,1624154663
Half Moon Bay,37.4636,-122.4286,30.94,69,90,0.89,US,1624154664
Manavālakurichi,8.1333,77.3,27.05,81,93,6.9,IN,1624154664
Kondinskoye,59.6481,67.41,13.17,81,89,10.76,RU,1624154664
Broken Hill,-31.95,141.4333,12.11,56,0,4.98,AU,1624154665
Kintampo,8.0563,-1.7306,23.0,85,33,2.53,GH,1624154665
Asău,46.4333,26.4,16.33,100,75,2.12,RO,1624154075
Aksarka,66.5606,67.7975,10.16,72,100,6.21,RU,1624154665
Palana,59.1167,159.9667,8.66,65,100,6.55,RU,1624154666
Bathsheba,13.2167,-59.5167,27.34,74,40,6.17,BB,1624154081
Pouso Alegre,-22.23,-45.9364,16.03,68,96,0.46,BR,1624154666
Biratnagar,26.4831,87.2834,25.32,92,100,6.35,NP,1624154666
Camaçari,-12.6975,-38.3242,25.87,92,7,1.42,BR,1624154667
Udachny,66.4167,112.4,25.84,32,57,5.35,RU,1624154667
Qaqortoq,60.7167,-46.0333,9.28,77,100,0.88,GL,1624154667
Iqaluit,63.7506,-68.5145,1.5,80,100,1.34,CA,1624154668
Havre-St-Pierre,50.2334,-63.5986,12.2,94,90,3.6,CA,1624154668
Lerwick,60.1545,-1.1494,10.0,77,75,3.6,GB,1624154668
Alice Springs,-23.7,133.8833,13.75,54,12,4.63,AU,1624154585
Coquimbo,-29.9533,-71.3436,12.91,86,6,1.11,CL,1624154596
Cametá,-2.2444,-49.4958,23.88,92,69,2.41,BR,1624154669
São Sebastião,-23.76,-45.4097,19.65,92,100,0.96,BR,1624154669
Araouane,18.9048,-3.5265,33.34,27,33,3.84,ML,1624154670
Avera,33.194,-82.5271,23.38,95,100,3.04,US,1624154670
Preobrazheniye,42.9019,133.9064,11.49,91,100,4.22,RU,1624154670
Guerrero Negro,27.9769,-114.0611,18.54,81,0,8.6,MX,1624154671
Arrondissement de Moulins,46.5,3.3333,17.16,97,100,1.81,FR,1624154671
Hong Kong,22.2855,114.1577,33.31,79,100,3.13,HK,1624154588
Bemidji,47.4736,-94.8803,20.36,60,40,2.57,US,1624154454
Tautira,-17.7333,-149.15,28.01,82,100,7.13,PF,1624154672
Haines Junction,60.7522,-137.5108,20.69,34,8,3.63,CA,1624154672
Takaka,-40.85,172.8,15.87,79,100,4.76,NZ,1624154672
Garissa,-0.4536,39.6401,21.97,78,100,6.84,KE,1624154672
Saint Anthony,45.0205,-93.218,23.96,45,1,2.06,US,1624154673
Tabas,33.5959,56.9244,28.07,15,0,3.72,IR,1624154673
Olafsvik,64.8945,-23.7142,4.92,69,65,5.25,IS,1624154673
Spring Valley,36.108,-115.245,43.95,10,40,0.89,US,1624154591
Constitución,-35.3333,-72.4167,10.46,74,97,1.89,CL,1624154674
Tuatapere,-46.1333,167.6833,8.1,74,1,1.14,NZ,1624154084
Ikwiriri,-7.9562,38.9716,18.03,94,8,1.26,TZ,1624154674
Campobello di Mazara,37.6358,12.7443,28.49,49,78,0.89,IT,1624154675
Kungurtug,50.5994,97.5228,22.17,32,8,0.63,RU,1624154675
Sungai Penuh,-2.0833,101.3833,22.48,63,100,1.42,ID,1624154675
Kawalu,-7.3817,108.2082,25.9,79,30,1.03,ID,1624154676
Shenjiamen,29.9576,122.298,20.51,85,100,5.53,CN,1624154103
Mackenzie,55.2999,-123.1698,19.75,44,94,1.19,CA,1624154411
Mandalgovi,45.7625,106.2708,21.24,28,100,2.82,MN,1624154676
Houma,29.5958,-90.7195,28.0,83,1,1.54,US,1624154385
Yabrūd,33.9674,36.6574,11.4,41,0,0.3,SY,1624154676
Huaura,-11.07,-77.5994,18.61,85,38,4.06,PE,1624154677
Northam,51.0333,-4.2167,14.25,96,96,4.72,GB,1624154677
Les Cayes,18.2,-73.75,26.5,84,100,2.65,HT,1624154678
Tatishchevo,51.6703,45.5953,17.92,77,0,1.35,RU,1624154678
Gwembe,-16.4975,27.6069,13.32,60,97,2.23,ZM,1624154678
Mountain Home,43.133,-115.6912,33.71,10,1,7.72,US,1624154679
Guarapuava,-25.3953,-51.4581,10.37,99,100,1.87,BR,1624154679
Rajshahi,24.3667,88.6,26.16,84,99,2.84,BD,1624154679
Emba,48.8264,58.1442,19.74,50,0,2.59,KZ,1624154680
Częstochowa,50.7965,19.1241,20.33,88,0,3.75,PL,1624154610
Rundu,-17.9333,19.7667,10.01,58,1,2.61,NA,1624154680
Lashio,22.9333,97.75,21.57,94,100,1.02,MM,1624154680
Carballo,43.213,-8.691,14.75,90,96,4.98,ES,1624154681
Alta Floresta,-9.8756,-56.0861,26.0,55,95,0.13,BR,1624154681
Taoudenni,22.6783,-3.9836,35.23,11,46,3.61,ML,1624154682
Antoniny,49.8097,26.8771,16.22,97,71,2.61,UA,1624154682
Totness,5.8833,-56.3167,25.52,88,7,4.88,SR,1624154682
Wanning,18.8003,110.3967,32.33,62,100,5.25,CN,1624154683
Kavieng,-2.5744,150.7967,28.23,71,63,1.46,PG,1624154683
Médéa,36.2642,2.7539,15.25,66,100,0.74,DZ,1624154683
Kulu,39.0951,33.0799,18.56,54,40,2.43,TR,1624154683
Malumfashi,11.7853,7.6218,23.9,73,78,0.71,NG,1624154684
Oskarshamn,57.2645,16.4484,18.78,89,41,2.49,SE,1624154684
Pingliang,35.5392,106.6861,22.19,32,100,0.95,CN,1624154684
Paraíso,9.8383,-83.8656,19.68,97,95,0.46,CR,1624154685
Chipinge,-20.1883,32.6236,9.22,97,24,1.03,ZW,1624154685
Assiut,27.181,31.1837,25.57,26,0,3.13,EG,1624154685
Davlekanovo,54.2215,55.0343,22.01,83,0,5.61,RU,1624154686
Ugra,54.7777,34.3267,15.9,97,0,1.42,RU,1624154686
La Ronge,55.1001,-105.2842,15.14,63,75,5.14,CA,1624154098
Namie,37.4833,141.0,23.73,85,100,2.47,JP,1624154686
Faanui,-16.4833,-151.75,27.13,77,18,6.49,PF,1624154687
Kuusankoski,60.907,26.6244,17.29,88,0,2.06,FI,1624154687
Funtua,11.5233,7.3081,21.25,87,45,0.65,NG,1624154687
Teeli,51.0333,90.2333,19.51,55,99,0.76,RU,1624154688
Karatau,43.1667,70.4667,16.25,43,46,6.81,KZ,1624154688
Urucará,-2.5364,-57.76,23.06,95,9,1.23,BR,1624154688
Drăgăneşti-Vlaşca,44.1014,25.5981,17.97,95,97,1.75,RO,1624154689
Mchinji,-13.7984,32.8802,10.39,82,45,2.25,MW,1624154689
Ozieri,40.586,9.0012,22.79,50,100,0.7,IT,1624154689
Derzhavīnsk,51.1,66.3167,14.77,76,100,5.06,KZ,1624154690
Bonthe,7.5264,-12.505,25.54,86,100,3.67,SL,1624154690
Chiredzi,-21.05,31.6667,13.08,95,13,1.95,ZW,1624154691
Antalaha,-14.9003,50.2788,19.06,89,11,3.28,MG,1624154691
Manado,1.487,124.8455,29.43,74,40,2.06,ID,1624154691
Okato,-39.2,173.8833,12.46,95,100,2.96,NZ,1624154692
Ariquemes,-9.9133,-63.0408,25.18,70,100,0.57,BR,1624154510
Champerico,14.3,-91.9167,28.53,74,100,0.81,GT,1624154692
Kiryat Gat,31.61,34.7642,20.22,79,0,1.24,IL,1624154692
Umrāla,21.8333,71.8167,28.37,70,98,6.32,IN,1624154693
St. George's,12.0564,-61.7485,26.66,85,100,6.5,GD,1624154693
Betioky,-23.7167,44.3833,16.51,87,0,4.34,MG,1624154694
Paralímni,35.0375,33.9833,20.05,94,0,3.49,CY,1624154694
Diffa,13.3154,12.6113,28.33,53,53,4.14,NE,1624154694
Porto Santo,33.072,-16.3415,19.21,72,20,5.66,PT,1624154695
Shimoda,34.6667,138.95,27.87,90,100,2.46,JP,1624154695
Bahía Solano,6.2262,-77.4044,26.17,87,100,2.33,CO,1624154695
Ayan,56.45,138.1667,13.09,60,6,4.45,RU,1624154696
Gondanglegi,-7.7479,112.0132,27.28,76,100,1.97,ID,1624154696
Kununurra,-15.7667,128.7333,22.99,23,7,4.63,AU,1624154696
Kirakira,-10.4544,161.9205,29.08,67,93,1.9,SB,1624154697
Kysyl-Syr,63.8986,122.7617,29.75,40,29,1.12,RU,1624154697
Qixingtai,30.4135,111.8874,23.27,72,100,1.23,CN,1624154697
Taunggyi,20.7833,97.0333,20.13,81,84,3.5,MM,1624154641
Kralendijk,12.15,-68.2667,27.99,83,40,5.66,BQ,1624154698
Nova Londrina,-22.7658,-52.985,13.76,93,96,4.34,BR,1624154565
Long,18.0761,99.8326,29.11,70,67,1.76,TH,1624154698
Cheremshan,54.6667,51.5,17.62,90,0,3.13,RU,1624154699
Östersund,63.1792,14.6357,8.25,100,90,1.03,SE,1624154430
Shenzhen,22.5455,114.0683,33.25,75,100,3.83,CN,1624154513
Southbridge,42.0751,-72.0334,24.9,76,100,0.89,US,1624154699
Ayorou,14.7308,0.9174,32.01,37,99,4.13,NE,1624154699
Chumikan,54.7183,135.315,16.25,47,100,1.41,RU,1624154700
Yuyao,30.05,121.1494,19.44,97,100,3.26,CN,1624154700
Sumenep,-7.0167,113.8667,28.93,69,56,3.64,ID,1624154700
Alofi,-19.0595,-169.9187,24.39,72,42,6.92,NU,1624154701
Gornopravdinsk,60.05,69.9,10.83,97,100,5.81,RU,1624154701
Codrington,-38.2667,141.9667,11.47,76,100,1.66,AU,1624154701
Rabaul,-4.1967,152.1721,28.72,70,95,3.05,PG,1624154703
Itatskiy,56.07,89.0369,12.93,98,100,3.87,RU,1624154703
Quatre Cocos,-20.2078,57.7625,22.12,61,72,9.06,MU,1624154704
Rocha,-34.4833,-54.3333,10.56,98,100,2.39,UY,1624154487
Vung Tau,10.346,107.0843,28.39,77,84,4.72,VN,1624154704
Río Gallegos,-51.6226,-69.2181,0.03,80,0,0.0,AR,1624154705
Barra dos Coqueiros,-10.9089,-37.0386,26.01,69,40,4.12,BR,1624154705
Ocós,14.5094,-92.1933,28.51,74,100,0.28,GT,1624154705
Bereda,43.2686,-7.5406,13.56,100,90,3.87,ES,1624154706
Tarata,-17.6167,-66.0167,14.68,55,39,1.06,BO,1624154706
Ōdachō-ōda,35.1833,132.5,22.43,63,100,1.64,JP,1624154706
Port Lincoln,-34.7333,135.8667,13.31,52,1,2.95,AU,1624154707
Fengcheng,40.4536,124.0717,23.92,58,0,0.99,CN,1624154707
Huilong,31.8111,121.655,25.58,66,100,2.67,CN,1624154707
Altea,38.5989,-0.0514,22.55,91,99,4.2,ES,1624154708
Arrondissement de Limoges,45.75,1.3333,17.31,94,100,1.54,FR,1624154708
Formosa do Rio Preto,-11.0483,-45.1931,22.32,54,42,1.68,BR,1624154708
Santa Maria,-29.6842,-53.8069,11.74,97,95,0.36,BR,1624154492
Severnyy,50.677,36.5532,17.02,67,18,5.0,RU,1624154709
Sosnovo-Ozerskoye,52.5249,111.5418,14.77,69,87,3.36,RU,1624154709
Ballina,-28.8667,153.5667,20.1,71,95,7.81,AU,1624154709
Dauphin,51.1494,-100.0502,17.08,77,75,4.12,CA,1624154710
Xagħra,36.05,14.2644,23.23,61,4,2.52,MT,1624154710
Deputatsky,69.3,139.9,25.62,23,19,4.38,RU,1624154710
Port Keats,-14.25,129.55,27.47,21,25,4.33,AU,1624154710
Abashiri,44.0213,144.2697,12.13,90,100,3.19,JP,1624154711
Beringovskiy,63.05,179.3167,5.38,90,68,3.26,RU,1624154711
Makakilo City,21.3469,-158.0858,27.6,64,90,3.09,US,1624154711
Peniche,39.3558,-9.3811,17.01,90,94,8.18,PT,1624154712
Djougou,9.7085,1.666,23.26,87,100,1.85,BJ,1624154712
Turukhansk,65.8167,87.9833,8.58,86,100,3.25,RU,1624154712
Presidencia Roque Sáenz Peña,-26.7852,-60.4388,7.92,83,0,1.66,AR,1624154713
Waingapu,-9.6567,120.2641,29.2,64,25,5.25,ID,1624154713
Lumberton,34.6182,-79.0086,27.21,65,100,5.65,US,1624154445
Piaçabuçu,-10.4056,-36.4344,24.77,73,73,4.57,BR,1624154713
Kaeo,-35.1,173.7833,18.51,80,20,6.98,NZ,1624154714
Tupanciretã,-29.0806,-53.8358,9.87,98,92,3.18,BR,1624154714
Coffs Harbour,-30.3,153.1333,19.15,62,75,8.75,AU,1624154714
Saldanha,-33.0117,17.9442,17.81,51,0,4.06,ZA,1624154715
Nuuk,64.1835,-51.7216,5.34,93,75,12.35,GL,1624154437
Birao,10.2849,22.7882,23.18,76,100,1.26,CF,1624154715
Outlook,51.5001,-107.0513,16.05,69,23,5.05,CA,1624154715
Bayan,46.0833,127.4,19.64,69,69,5.95,CN,1624154716
Erdenet,49.0333,104.0833,19.76,43,10,2.55,MN,1624154716
Warangal,18.0,79.5833,27.53,66,52,6.91,IN,1624154716
Yauya,-8.9833,-77.3,8.27,86,39,2.29,PE,1624154717
Mossamedes,-15.1961,12.1522,20.08,66,7,4.19,AO,1624154717
Tommot,58.9564,126.2925,24.57,64,96,2.18,RU,1624154717
Salym,60.0625,71.4789,11.05,77,100,5.32,RU,1624154718
Sar-e Pul,35.8333,66.1667,20.41,23,1,2.25,AF,1624154718
Torbay,47.6666,-52.7314,13.82,86,100,4.25,CA,1624154718
Keskin,39.6731,33.6136,16.71,55,25,1.61,TR,1624154719
La Orilla,17.9833,-102.2333,25.42,89,100,2.65,MX,1624154719
Saint-Augustin,51.226,-58.6502,10.87,85,100,2.81,CA,1624154719
Laas,46.6166,10.7002,19.46,89,7,1.21,IT,1624154720
Maun,-19.9833,23.4167,15.32,56,85,5.69,BW,1624154720
Kidal,18.4411,1.4078,32.74,28,32,3.67,ML,1624154720
Bubaque,11.2833,-15.8333,26.21,78,94,7.37,GW,1624154721
Belyy Yar,53.6039,91.3903,19.94,73,0,1.0,RU,1624154721
Montes Claros,-16.735,-43.8617,16.26,77,0,1.89,BR,1624154436
Nabīnagar,23.8917,90.9733,26.07,93,100,4.78,BD,1624154636
Bay Roberts,47.5999,-53.2648,14.25,76,100,0.89,CA,1624154722
Progreso,21.2833,-89.6667,29.06,81,90,3.04,MX,1624154722
Batié,9.8833,-2.9167,23.78,82,72,2.68,BF,1624154722
Phalodi,27.1333,72.3667,28.9,56,100,6.41,IN,1624154723
Bom Jesus,-9.0744,-44.3586,21.77,56,12,0.83,BR,1624154723
Dingcheng,32.1272,115.0394,26.08,60,98,1.5,CN,1624154723
Nuevo Progreso,23.1667,-97.95,27.52,77,100,2.68,MX,1624154723
Addanki,15.8167,79.9833,29.97,57,100,7.59,IN,1624154724
Camocim,-2.9022,-40.8411,24.7,84,15,4.65,BR,1624154724
Puli,23.9664,120.9695,23.34,69,100,1.46,TW,1624154724
North Shore,-36.8,174.75,16.33,89,100,2.68,NZ,1624154725
Moreira Sales,-24.0622,-53.0069,12.15,96,100,2.89,BR,1624154725
Ibiá,-19.4783,-46.5389,15.27,65,0,1.1,BR,1624154725
Ozernovskiy,51.5,156.5167,6.08,93,91,2.52,RU,1624154726
Yulara,-25.2406,130.9889,13.91,51,6,5.14,AU,1624154726
Doumé,4.2333,13.45,19.35,99,25,1.01,CM,1624154726
Lagoa,39.05,-27.9833,19.02,93,99,6.11,PT,1624154727
Eyl,7.9803,49.8164,25.93,61,100,11.41,SO,1624154727
Yar-Sale,66.8333,70.8333,11.2,58,95,5.42,RU,1624154727
Los Llanos de Aridane,28.6585,-17.9182,17.86,73,20,5.66,ES,1624154728
Tessalit,20.1986,1.0114,31.74,8,0,3.82,ML,1624154728
Brainerd,46.358,-94.2008,21.14,49,1,0.0,US,1624154728
Itamaraju,-17.0392,-39.5311,19.22,90,100,0.93,BR,1624154729
Soyo,-6.1349,12.3689,22.81,90,15,2.91,AO,1624154729
Burns Lake,54.2331,-125.7533,20.38,28,6,0.95,CA,1624154416
Shache,38.4167,77.2406,24.52,21,100,6.56,CN,1624154521
Muisne,0.6,-80.0333,24.47,84,90,3.42,EC,1624154729
Inuvik,68.3499,-133.7218,24.92,26,27,3.62,CA,1624154730
Nur-Sultan,51.1801,71.446,12.97,54,0,5.0,KZ,1624154730
Tobol,52.6844,62.5794,17.25,74,97,6.29,KZ,1624154730
Saint-François,46.4154,3.9054,18.43,100,100,0.51,FR,1624154731
Kusa,55.3383,59.4406,16.38,98,97,5.39,RU,1624154731
Marystown,47.1666,-55.1483,11.08,72,100,2.94,CA,1624154731
Golden,39.7555,-105.2211,26.16,41,75,1.34,US,1624154344
Podgornoye,51.735,39.1496,12.12,87,0,1.0,RU,1624154732
Teseney,15.11,36.6575,24.25,68,82,3.16,ER,1624154732
Buin,-33.7333,-70.75,13.19,65,100,0.44,CL,1624154732
Humaitá,-7.5061,-63.0208,23.73,95,100,1.28,BR,1624154733
Partsa,54.3653,42.8617,15.49,87,6,1.15,RU,1624154733
Camaná,-16.6228,-72.7111,17.31,88,61,3.11,PE,1624154733
Agua Buena,7.8167,-80.4,21.74,99,100,1.12,PA,1624154734
Seddon,-37.8068,144.8916,14.58,78,75,2.57,AU,1624154734
Ambulu,-8.345,113.6058,27.64,71,15,0.25,ID,1624154734
Paso de Carrasco,-34.8603,-56.0522,11.08,71,75,2.06,UY,1624154735
Esterhazy,50.65,-102.0843,13.81,86,100,3.68,CA,1624154735
Jalu,29.0331,21.5482,22.85,43,0,3.75,LY,1624154735
Moscow,55.7522,37.6156,18.54,79,0,1.52,RU,1624154567
Chicomuselo,15.7667,-92.2667,21.9,92,73,2.09,MX,1624154736
Romny,50.751,33.4747,16.89,88,100,4.46,UA,1624154736
Kensington,-33.9167,151.2167,16.11,89,75,0.89,AU,1624154736
San Andrés del Rabanedo,42.6117,-5.6167,13.2,82,100,6.17,ES,1624154737
Quryq,43.2,51.65,24.89,25,0,9.58,KZ,1624154737
Acaraú,-2.8856,-40.12,24.98,84,14,5.22,BR,1624154737
Korla,41.7597,86.1469,26.06,23,0,2.65,CN,1624154738
Koslan,63.4564,48.8989,10.13,70,12,2.31,RU,1624154738
Necochea,-38.5473,-58.7368,5.02,78,100,1.98,AR,1624154738
Mitsamiouli,-11.3847,43.2844,24.9,73,21,4.0,KM,1624154739
