City,Lat,Lng,Max Temp,Humidity,Cloudiness,Windspeed,Country,Date
Druzhba,52.0428,33.9453,68.04,94,47,7.18,UA,1624405444
Dikson,73.5069,80.5464,31.86,86,100,15.93,RU,1624405444
Mâncio Lima,-7.6142,-72.8958,75.33,76,81,2.37,BR,1624405444
Ivankiv,50.9386,29.8943,73.6,92,36,4.54,UA,1624405445
Hobart,-42.8794,147.3294,46.11,91,0,3.0,AU,1624405218
Tautira,-17.7333,-149.15,86.02,77,19,4.88,PF,1624405445
Upernavik,72.7868,-56.1549,45.21,53,5,8.57,GL,1624405445
Adrar,20.5022,-10.0711,89.08,16,13,17.83,MR,1624405446
Ushuaia,-54.8,-68.3,44.26,49,40,13.8,AR,1624405446
Beloha,-25.1667,45.05,61.81,94,0,8.39,MG,1624405446
Palmer,42.1584,-72.3287,63.75,84,90,6.91,US,1624405447
San Patricio,28.017,-97.5169,87.89,62,36,11.43,US,1624405447
Longyearbyen,78.2186,15.6401,39.04,75,75,10.36,SJ,1624405447
Vaini,-21.2,-175.2,77.16,83,75,5.75,TO,1624405339
Mataura,-46.1927,168.8643,45.48,88,53,0.45,NZ,1624405448
Katsuura,35.1333,140.3,74.19,82,100,15.59,JP,1624405417
Mbuji-Mayi,-6.15,23.6,73.29,42,90,3.47,CD,1624405448
Lebu,-37.6167,-73.65,56.23,86,100,27.56,CL,1624405449
Cruzeiro do Sul,-29.5128,-51.9853,61.09,90,62,2.33,BR,1624405449
Chifeng,42.2683,118.9636,72.37,38,30,1.66,CN,1624405449
Bay City,43.5945,-83.8889,63.16,67,90,3.44,US,1624405450
Kutum,14.2,24.6667,75.45,48,93,9.4,SD,1624405450
Kapaa,22.0752,-159.319,84.18,74,1,1.99,US,1624405450
Ust-Tsilma,65.441,52.1498,54.48,75,90,6.17,RU,1624405450
Port Macquarie,-31.4333,152.9167,59.9,71,97,4.21,AU,1624405261
Banjar,-8.19,114.9675,78.66,86,89,2.91,ID,1624405451
Lázaro Cárdenas,17.9583,-102.2,84.16,76,32,6.38,MX,1624405451
San Policarpo,12.1791,125.5072,82.06,76,100,2.93,PH,1624405452
Albany,42.6001,-73.9662,60.75,77,100,5.01,US,1624405276
Arraial do Cabo,-22.9661,-42.0278,69.76,83,75,5.75,BR,1624405452
Bonnyville,54.2668,-110.735,83.52,55,67,13.73,CA,1624405452
Esperance,-33.8667,121.9,53.44,78,100,28.61,AU,1624405452
Norman Wells,65.282,-126.8329,62.64,45,75,20.71,CA,1624405453
Sorsk,54.0033,90.2467,50.58,91,100,6.02,RU,1624405453
Taunggyi,20.7833,97.0333,64.44,94,99,2.84,MM,1624405453
Mehamn,71.0357,27.8492,43.86,89,100,17.0,NO,1624405454
Barrow,71.2906,-156.7887,44.62,65,1,5.75,US,1624405202
Nome,64.5011,-165.4064,68.16,72,1,10.36,US,1624405454
Punta Arenas,-53.15,-70.9167,37.42,69,40,4.61,CL,1624405454
Marabu,4.4148,114.0089,77.14,100,40,2.3,MY,1624405455
Tongchuanshi,35.0806,109.0897,77.54,41,97,6.06,CN,1624405455
Cape Town,-33.9258,18.4232,60.89,87,40,7.0,ZA,1624405337
Vila,42.0304,-8.1588,47.75,81,76,6.51,PT,1624405456
Talnakh,69.4865,88.3972,44.87,71,86,15.68,RU,1624405456
Ponta Delgada,37.7333,-25.6667,65.12,72,75,4.61,PT,1624405456
Touros,-5.1989,-35.4608,76.1,78,23,10.96,BR,1624405457
Jinji,23.2281,110.8261,78.82,93,100,0.94,CN,1624405457
Garoowe,8.4054,48.4845,75.15,68,79,23.89,SO,1624405457
Hermanus,-34.4187,19.2345,57.79,79,94,16.51,ZA,1624405458
Seoul,37.5683,126.9778,72.84,68,0,10.36,KR,1624405458
Ereymentau,51.6199,73.1033,48.79,89,99,10.83,KZ,1624405458
George Town,5.4112,100.3354,75.15,94,40,1.01,MY,1624405458
Stara Zagora,42.4328,25.6419,70.03,86,34,3.02,BG,1624405442
Bariloche,-41.1456,-71.3082,38.95,87,90,5.75,AR,1624405459
Chui,-33.6971,-53.4616,54.05,85,62,9.17,UY,1624405459
Ostrovnoy,68.0531,39.5131,61.97,91,74,8.75,RU,1624405460
Butaritari,3.0707,172.7902,83.12,69,29,7.52,KI,1624405460
Iqaluit,63.7506,-68.5145,38.93,86,90,18.01,CA,1624405461
Egvekinot,66.3167,-179.1667,47.88,54,100,4.99,RU,1624405461
Qaanaaq,77.484,-69.3632,42.1,56,85,8.79,GL,1624405461
Skibbereen,51.55,-9.2667,49.8,93,100,4.79,IE,1624405462
Puerto Ayora,-0.7393,-90.3518,73.54,89,45,5.99,EC,1624405462
Jaguarari,-10.2639,-40.1958,67.12,91,43,5.61,BR,1624405462
Bluff,-46.6,168.3333,45.81,69,33,6.62,NZ,1624405463
Rikitea,-23.1203,-134.9692,75.72,76,46,11.3,PF,1624405463
Porto-Vecchio,41.591,9.2795,72.93,94,0,3.44,FR,1624405463
Cap-aux-Meules,47.3821,-61.8597,66.25,100,90,18.41,CA,1624405464
Lagoa,39.05,-27.9833,64.98,76,90,3.49,PT,1624405368
Atuona,-9.8,-139.0333,77.92,79,58,7.31,PF,1624405464
East London,-33.0153,27.9116,67.71,72,62,5.91,ZA,1624405464
Saint-Philippe,-21.3585,55.7679,63.99,83,67,13.09,RE,1624405465
Otane,-39.8833,176.6333,53.01,68,95,8.34,NZ,1624405465
Nālūt,30.3333,10.85,90.0,18,8,16.44,LY,1624405465
Hasaki,35.7333,140.8333,73.8,84,100,12.93,JP,1624405466
Hilo,19.7297,-155.09,83.25,66,1,8.05,US,1624405199
Bac Lieu,9.285,105.7244,81.54,79,64,9.86,VN,1624405466
Hay River,60.8156,-115.7999,58.98,72,75,11.5,CA,1624405422
Yar-Sale,66.8333,70.8333,46.29,59,98,17.78,RU,1624405467
Busselton,-33.65,115.3333,46.09,79,94,9.24,AU,1624405467
Lixouri,38.2019,20.4314,77.99,51,0,7.47,GR,1624405467
Bredasdorp,-34.5322,20.0403,57.27,82,86,3.44,ZA,1624405468
Montepuez,-13.1256,38.9997,60.13,95,52,5.03,MZ,1624405468
Lompoc,34.6391,-120.4579,78.13,68,1,14.97,US,1624405468
Baiyin,36.5583,104.2081,67.08,41,92,3.89,CN,1624405469
Waipawa,-41.4122,175.5153,50.63,80,77,10.76,NZ,1624405469
Port Alfred,-33.5906,26.891,62.13,78,57,6.31,ZA,1624405469
Rawson,-43.3002,-65.1023,51.19,80,100,15.77,AR,1624405249
Arrondissement du Havre,49.5833,0.3333,54.03,87,90,9.22,FR,1624405470
Umm Kaddadah,13.6017,26.6876,85.26,38,100,16.73,SD,1624405470
Camaçari,-12.6975,-38.3242,76.77,91,47,4.38,BR,1624405470
Lagunas,-5.2269,-75.6753,73.33,97,86,1.3,PE,1624405471
Olafsvik,64.8945,-23.7142,46.4,78,7,11.77,IS,1624405472
Buckeye,33.3703,-112.5838,106.12,18,100,11.5,US,1624405472
Severodvinsk,64.5635,39.8302,66.31,90,72,6.4,RU,1624405472
Stornoway,58.2093,-6.3865,53.92,94,90,19.57,GB,1624405473
Hervey Bay,-25.2986,152.8535,71.04,87,56,1.01,AU,1624405473
Castro,-24.7911,-50.0119,52.74,97,32,4.29,BR,1624405473
Saint Anthony,45.0205,-93.218,77.04,30,1,1.99,US,1624405474
Jamestown,42.097,-79.2353,60.39,61,20,8.01,US,1624405474
Airai,-8.9266,125.4092,65.7,80,22,1.21,TL,1624405474
Nanortalik,60.1432,-45.2371,43.21,91,67,5.68,GL,1624405475
Hailar,49.2,119.7,70.34,56,61,4.21,CN,1624405475
Trincomalee,8.5711,81.2335,80.94,75,100,17.81,LK,1624405475
La Ronge,55.1001,-105.2842,73.62,56,75,8.05,CA,1624405475
Torbay,47.6666,-52.7314,72.37,73,75,11.5,CA,1624405476
Bururi Province,-3.85,29.6333,55.09,73,45,2.3,BI,1624405476
Belyy Yar,53.6039,91.3903,55.29,94,75,2.24,RU,1624405476
Oyama,36.3,139.8,76.53,77,100,6.51,JP,1624405477
Mukono,0.3533,32.7553,71.35,87,97,5.75,UG,1624405477
Kahului,20.8947,-156.47,84.97,68,40,20.71,US,1624405477
Bengkulu,-3.8004,102.2655,74.77,88,53,5.88,ID,1624405362
Skagen,57.7209,10.5839,59.27,89,5,13.27,DK,1624405478
Hamilton,39.1834,-84.5333,70.21,44,20,8.05,US,1624405396
Kudat,6.8837,116.8477,77.29,100,20,2.3,MY,1624405478
Udachny,66.4167,112.4,74.37,50,46,13.56,RU,1624405478
Sisimiut,66.9395,-53.6735,47.77,57,2,1.01,GL,1624405479
Carballo,43.213,-8.691,59.54,92,83,6.93,ES,1624405479
Avarua,-21.2078,-159.775,78.85,65,20,4.61,CK,1624405479
Nikolskoye,59.7035,30.7861,73.29,95,90,4.72,RU,1624405480
New Norfolk,-42.7826,147.0587,45.75,91,100,2.04,AU,1624405480
Ahipara,-35.1667,173.1667,59.68,61,79,6.67,NZ,1624405480
Kabwe,-14.4469,28.4464,51.82,90,54,2.64,ZM,1624405481
Carnarvon,-24.8667,113.6333,41.07,60,0,6.91,AU,1624405294
Grand Forks,47.9417,-97.4337,82.33,24,40,8.05,US,1624405233
Almaznyy,48.0448,40.045,75.34,46,88,6.91,RU,1624405481
Viedma,-40.8135,-62.9967,51.6,72,100,13.29,AR,1624405482
Vardø,70.3705,31.1107,44.74,89,96,22.01,NO,1624405482
Altay,47.8667,88.1167,49.82,80,97,2.28,CN,1624405482
Pilar,-9.5972,-35.9567,73.33,92,2,1.95,BR,1624405234
Chokurdakh,70.6333,147.9167,76.24,24,21,7.36,RU,1624405483
Pevek,69.7008,170.3133,38.68,75,98,4.25,RU,1624405483
Riohacha,11.5444,-72.9072,81.36,74,83,14.58,CO,1624405483
Jember,-8.166,113.7032,75.76,92,74,0.65,ID,1624405484
Tasiilaq,65.6145,-37.6368,44.76,74,17,4.03,GL,1624405484
Bida,9.0833,6.0167,73.81,93,78,3.47,NG,1624405385
Chipinge,-20.1883,32.6236,50.45,91,21,3.51,ZW,1624405484
Hopelchén,19.7667,-89.85,96.08,41,28,7.56,MX,1624405485
Trelleborg,55.3751,13.1569,58.95,86,0,9.86,SE,1624405359
Tuktoyaktuk,69.4541,-133.0374,39.2,87,90,9.22,CA,1624405330
Ponta do Sol,32.6667,-17.1,69.71,69,69,5.86,PT,1624405485
Pāsighāt,28.0667,95.3333,77.49,95,99,0.18,IN,1624405486
Khatanga,71.9667,102.5,54.03,59,50,17.58,RU,1624405486
Ardakān,32.31,54.0175,77.38,11,0,4.63,IR,1624405486
Chacabuco,-34.6417,-60.4739,50.81,84,16,11.18,AR,1624405487
Tabou,4.423,-7.3528,76.08,89,100,7.23,CI,1624405487
Coahuayana Viejo,18.7333,-103.6833,87.28,80,85,3.83,MX,1624405487
Thompson,55.7435,-97.8558,69.96,30,75,9.22,CA,1624405232
Cherskiy,68.75,161.3,69.44,37,47,6.17,RU,1624405488
Kavieng,-2.5744,150.7967,83.95,71,14,8.93,PG,1624405488
Ukiah,39.1502,-123.2078,88.52,48,1,13.8,US,1624405488
Ampanihy,-24.7,44.75,60.64,90,0,5.12,MG,1624405489
Leh,34.1667,77.5833,47.8,64,81,3.2,IN,1624405489
Norashen,39.9996,44.5895,80.13,49,0,1.14,AM,1624405489
Nuuk,64.1835,-51.7216,50.61,76,20,13.8,GL,1624405490
Miguel Hidalgo,19.4225,-99.2028,69.42,72,90,11.5,MX,1624405490
Nouadhibou,20.931,-17.0347,71.58,68,0,17.27,MR,1624405490
Tiksi,71.6872,128.8694,49.01,61,97,10.4,RU,1624405491
Bambous Virieux,-20.3428,57.7575,77.25,53,40,11.5,MU,1624405491
Fortuna,40.5982,-124.1573,77.18,67,20,8.01,US,1624405491
Preston,53.7667,-2.7167,55.38,83,3,2.95,GB,1624405312
Zhigansk,66.7697,123.3711,77.07,47,58,2.98,RU,1624405492
Muyezerskiy,63.9333,31.65,63.88,91,9,2.64,RU,1624405492
Cayenne,4.9333,-52.3333,82.09,82,0,1.01,GF,1624405492
Port Hedland,-20.3167,118.5667,51.85,82,75,5.75,AU,1624405492
Alice Springs,-23.7,133.8833,53.15,94,75,0.0,AU,1624405385
Kamina,-8.7386,24.9906,59.77,56,38,3.8,CD,1624405493
Oudtshoorn,-33.5907,22.2014,48.56,56,60,3.31,ZA,1624405493
Ribeira Grande,38.5167,-28.7,67.24,71,99,1.5,PT,1624405493
Dunedin,-45.8742,170.5036,51.8,51,37,3.0,NZ,1624405271
Ancud,-41.8697,-73.8203,45.43,92,100,10.31,CL,1624405494
Hithadhoo,-0.6,73.0833,82.13,67,99,4.41,MV,1624405494
Richards Bay,-28.783,32.0377,59.61,52,5,6.8,ZA,1624405495
Clyde River,70.4692,-68.5914,34.03,100,75,12.66,CA,1624405495
Faanui,-16.4833,-151.75,80.15,73,24,6.13,PF,1624405495
Natal,-5.795,-35.2094,75.85,88,20,5.75,BR,1624405496
De Aar,-30.6497,24.0123,56.73,46,98,10.6,ZA,1624405496
Miran Shah,33.0086,70.0697,82.2,32,0,3.33,PK,1624405496
Pontalina,-17.525,-49.4472,71.58,45,65,3.6,BR,1624405496
Bandarbeyla,9.4942,50.8122,77.23,79,97,22.41,SO,1624405497
Vestmannaeyjar,63.4427,-20.2734,48.04,77,100,10.71,IS,1624405497
Port Lincoln,-34.7333,135.8667,52.97,72,29,21.34,AU,1624405497
Yellowknife,62.456,-114.3525,64.92,36,20,24.16,CA,1624405376
Zverinogolovskoye,54.4586,64.8542,57.47,82,92,7.72,RU,1624405498
Mahébourg,-20.4081,57.7,77.29,53,40,11.5,MU,1624405498
Pedernales,18.0384,-71.744,81.93,75,100,11.05,DO,1624405499
Xining,36.6167,101.7667,63.28,53,95,1.83,CN,1624405499
Deputatsky,69.3,139.9,64.06,39,100,12.59,RU,1624405499
Saint Paul Harbor,57.79,-152.4072,49.51,93,90,11.5,US,1624405500
Pangody,65.85,74.4859,38.25,95,100,12.77,RU,1624405500
Ligayan,4.6533,119.4706,83.57,70,83,5.37,PH,1624405500
Broome,42.2506,-75.833,59.09,69,75,1.01,US,1624405501
Kloulklubed,7.0419,134.2556,81.1,64,85,2.13,PW,1624405501
Morondava,-20.2833,44.2833,67.23,62,3,6.87,MG,1624405501
Havelock,34.8791,-76.9013,75.06,95,99,3.0,US,1624405232
Matadi,-5.8167,13.45,71.08,87,99,2.62,CD,1624405502
Arlit,18.7369,7.3853,87.51,13,1,6.55,NE,1624405502
Sur,22.5667,59.5289,84.88,60,0,7.25,OM,1624405503
Ouro Preto do Oeste,-10.7481,-62.2158,76.59,60,56,3.2,BR,1624405503
Ko Samui,9.5357,99.9357,83.01,73,98,17.67,TH,1624405503
Kastamonu Province,41.5,33.6667,56.34,93,99,2.55,TR,1624405504
Geraldton,-28.7667,114.6,45.01,100,40,8.05,AU,1624405504
Lensk,60.7253,114.9278,74.26,58,69,5.37,RU,1624405504
Ambanja,-13.6833,48.45,65.55,71,1,3.51,MG,1624405504
Abu Samrah,35.3029,37.1841,67.5,75,0,8.05,SY,1624405505
Antofagasta,-23.65,-70.4,60.08,81,100,4.0,CL,1624405286
Ürümqi,43.801,87.6005,58.15,59,0,6.71,CN,1624405505
Nago,26.5881,127.9761,77.16,86,100,12.71,JP,1624405505
Beringovskiy,63.05,179.3167,41.85,79,100,9.73,RU,1624405506
Ambulu,-8.345,113.6058,76.5,88,60,2.37,ID,1624405506
Seymchan,62.8833,152.4333,59.68,52,99,4.03,RU,1624405507
Fareydūnshahr,32.941,50.121,57.63,14,0,6.44,IR,1624405507
Jülich,50.9333,6.3667,58.35,90,100,4.0,DE,1624405507
Port Hardy,50.6996,-127.4199,60.98,72,75,13.8,CA,1624405508
Santiago del Estero,-27.7951,-64.2615,59.52,61,79,9.35,AR,1624405313
Tuatapere,-46.1333,167.6833,45.82,79,58,1.74,NZ,1624405508
Lorengau,-2.0226,147.2712,82.74,78,27,7.81,PG,1624405508
Coihueco,-36.6167,-71.8333,54.34,76,20,12.66,CL,1624405509
Sinnamary,5.3833,-52.95,78.39,84,19,8.63,GF,1624405509
Wasilla,61.5814,-149.4394,65.62,60,90,3.44,US,1624405509
Maniitsoq,65.4167,-52.9,45.59,70,4,12.37,GL,1624405510
Marawi,7.9986,124.2928,69.66,75,59,0.83,PH,1624405510
Fort Nelson,58.8053,-122.7002,63.99,52,75,12.66,CA,1624405510
Batagay,67.6333,134.6333,76.28,27,43,5.88,RU,1624405511
Holbeach,52.804,0.0144,50.05,84,9,1.99,GB,1624405511
Bo Rai,12.5728,102.5371,77.5,91,75,3.22,TH,1624405511
Brae,60.3964,-1.353,51.71,80,100,18.03,GB,1624405512
Rio Grande,-32.035,-52.0986,57.94,80,100,15.43,BR,1624405512
Tubmanburg,6.8708,-10.8172,74.17,95,99,1.36,LR,1624405512
Kavaratti,10.5669,72.642,82.85,75,100,17.78,IN,1624405513
Saint George,37.1041,-113.5841,102.79,10,1,10.0,US,1624405513
Ushtobe,45.2514,77.9838,58.19,47,46,2.35,KZ,1624405513
Northam,51.0333,-4.2167,55.62,82,16,8.32,GB,1624405514
Jiuquan,39.7432,98.5174,68.77,48,94,9.19,CN,1624405514
Naze,28.3667,129.4833,77.92,72,76,16.89,JP,1624405514
High Rock,26.6208,-78.2833,86.02,78,21,15.55,BS,1624405515
Sidoarjo,-7.4478,112.7183,78.76,89,20,4.61,ID,1624405515
Kaitangata,-46.2817,169.8464,48.92,64,26,3.49,NZ,1624405515
Manakara,-22.1333,48.0167,61.09,91,22,4.52,MG,1624405516
Charagua,-19.8,-63.2167,60.78,80,46,0.65,BO,1624405516
Belmonte,-15.8631,-38.8828,73.9,82,7,7.45,BR,1624405516
Tocopilla,-22.092,-70.1979,60.08,74,99,4.94,CL,1624405517
Inírida,3.8653,-67.9239,73.6,97,78,2.46,CO,1624405517
Bairiki Village,1.3292,172.9752,86.0,74,20,9.22,KI,1624405517
Arang,21.2,81.9667,79.61,75,100,7.99,IN,1624405518
Whitefish Bay,43.1133,-87.9001,71.82,51,53,3.71,US,1624405518
Hofn,64.2539,-15.2082,49.21,63,1,14.07,IS,1624405363
Cidreira,-30.1811,-50.2056,60.46,90,11,10.83,BR,1624405519
Nemuro,43.3236,145.575,63.03,86,1,9.06,JP,1624405519
Codrington,-38.2667,141.9667,52.92,83,100,17.22,AU,1624405519
Sabha,27.0377,14.4283,89.35,19,3,13.89,LY,1624405520
Tura,25.5198,90.2201,74.41,95,99,5.61,IN,1624405520
Ban Dung,17.699,103.2596,82.87,96,100,3.62,TH,1624405520
Valparaíso,-33.0393,-71.6273,59.92,75,90,3.44,CL,1624405435
Coyhaique,-45.5752,-72.0662,31.95,93,0,0.0,CL,1624405521
Port Elizabeth,-33.918,25.5701,54.1,85,42,5.01,ZA,1624405521
Lavrentiya,65.5833,-171.0,51.04,68,37,2.53,RU,1624405522
Mar del Plata,-38.0023,-57.5575,54.12,60,75,11.01,AR,1624405345
Fairbanks,64.8378,-147.7164,80.6,41,75,1.01,US,1624405522
Pismo Beach,35.1428,-120.6413,77.45,58,1,3.0,US,1624405522
Batemans Bay,-35.7167,150.1833,53.91,69,100,6.15,AU,1624405523
Liepāja,56.5419,21.0367,71.65,88,75,2.3,LV,1624405523
Dakar,14.6937,-17.4441,78.93,83,0,4.61,SN,1624405313
Saskylakh,71.9167,114.0833,53.87,61,73,12.95,RU,1624405523
Salisbury,51.0693,-1.7957,53.47,84,38,5.75,GB,1624405306
Houma,29.5958,-90.7195,86.02,82,100,4.32,US,1624405524
Rocha,-34.4833,-54.3333,48.9,95,43,6.87,UY,1624405524
Pacific Grove,36.6177,-121.9166,79.75,71,1,8.01,US,1624405506
Lata,40.1629,-8.3327,60.82,93,58,2.08,PT,1624405525
Nabire,-3.3667,135.4833,81.63,74,65,1.1,ID,1624405525
Constitución,-35.3333,-72.4167,57.07,81,100,20.83,CL,1624405525
Manacapuru,-3.2997,-60.6206,82.98,77,76,1.97,BR,1624405526
Kati,12.7441,-8.0726,72.81,64,99,3.53,ML,1624405526
Kargasok,59.0556,80.8572,45.1,69,32,6.35,RU,1624405526
Zheleznodorozhnyy,55.7503,38.0042,73.92,76,34,3.47,RU,1624405527
Praia da Vitória,38.7333,-27.0667,66.76,72,75,3.33,PT,1624405527
Borazjan,29.2666,51.2159,90.19,24,0,2.37,IR,1624405527
Östersund,63.1792,14.6357,50.45,87,90,6.91,SE,1624405528
Gushikawa,26.3544,127.8686,74.43,100,75,8.05,JP,1624405528
São João da Barra,-21.6403,-41.0511,67.8,84,44,10.38,BR,1624405528
Ayagoz,47.9714,80.4392,47.73,83,73,3.94,KZ,1624405529
Ajdabiya,30.7554,20.2263,84.58,31,0,10.94,LY,1624405529
Guerrero Negro,27.9769,-114.0611,72.7,66,14,14.54,MX,1624405529
Colares,38.7992,-9.4469,63.28,78,3,15.01,PT,1624405530
Saryozek,44.3583,77.9753,53.6,56,93,0.34,KZ,1624405530
Muzhi,65.3667,64.6667,46.35,66,12,4.14,RU,1624405530
Akureyri,65.6835,-18.0878,46.33,71,75,8.05,IS,1624405531
Tatvan,38.5067,42.2817,59.56,47,0,3.58,TR,1624405531
Kirakira,-10.4544,161.9205,79.93,85,100,9.91,SB,1624405531
Te Anau,-45.4167,167.7167,44.44,76,44,1.28,NZ,1624405532
Bathsheba,13.2167,-59.5167,79.41,69,40,13.8,BB,1624405532
Jackson,42.4165,-122.8345,96.67,19,40,8.05,US,1624405404
Port Blair,11.6667,92.75,82.44,78,100,15.84,IN,1624405532
Jérémie,18.65,-74.1167,81.57,77,100,2.86,HT,1624405533
Dvinskoy Bereznik,62.8551,42.7072,65.37,87,34,3.85,RU,1624405533
Baní,18.2833,-70.3333,79.86,75,100,11.21,DO,1624405533
Kuching,1.55,110.3333,77.22,94,20,2.3,MY,1624405533
The Pas,53.8251,-101.2541,77.02,41,20,9.22,CA,1624405476
Severo-Kuril'sk,50.6789,156.125,46.94,84,72,6.2,RU,1624405534
Nísia Floresta,-6.0911,-35.2086,76.01,89,8,6.15,BR,1624405534
Wanaka,-44.7,169.15,45.45,63,6,2.53,NZ,1624405443
Baghlan,36.1307,68.7083,73.71,21,0,3.69,AF,1624405535
Kozhva,65.1073,57.0459,50.23,65,29,2.95,RU,1624405535
Tottori-shi,35.5,134.2333,71.6,78,75,4.61,JP,1624405535
Itarema,-2.9248,-39.9167,79.12,76,77,13.82,BR,1624405536
Novy Urengoy,66.0833,76.6333,37.92,95,100,13.13,RU,1624405536
Benjamín Aceval,-24.9667,-57.5667,62.74,82,97,4.94,PY,1624405536
Oranjemund,-28.55,16.4333,56.32,97,17,2.51,NA,1624405537
Gravdal,68.1214,13.5031,48.65,80,41,6.6,NO,1624405537
Aberdeen,57.1437,-2.0981,54.21,89,56,2.3,GB,1624405538
Gewanē,10.1664,40.6453,83.86,41,10,11.56,ET,1624405538
Edd,13.9297,41.6925,86.77,59,29,6.13,ER,1624405538
Kanniyākumāri,8.0833,77.5667,79.09,86,100,14.38,IN,1624405539
Kruisfontein,-34.0033,24.7314,51.89,91,63,2.24,ZA,1624405539
Yokaichi,35.1139,136.2037,74.71,71,99,2.21,JP,1624405539
Ubari,26.5921,12.7805,88.29,19,0,6.13,LY,1624405540
Shaoyang,27.2315,111.4525,77.2,72,94,1.86,CN,1624405540
Hambantota,6.1241,81.1185,79.38,82,98,14.45,LK,1624405540
Manta,-0.95,-80.7333,78.58,73,20,10.36,EC,1624405541
Villa Florida,-26.3833,-57.15,58.42,88,88,5.88,PY,1624405541
Yārāda,17.65,83.2667,80.92,89,75,2.3,IN,1624405541
Aleksandrovskoye,44.7142,43.0008,64.54,64,11,3.56,RU,1624405541
Kikwit,-5.041,18.8162,70.92,56,100,0.94,CD,1624405542
Kiama,-34.6833,150.8667,60.58,77,99,7.0,AU,1624405516
Gornyye Klyuchi,45.25,133.5,70.36,65,5,2.89,RU,1624405542
Aswān,24.0934,32.907,88.03,20,0,13.49,EG,1624405542
São Miguel,-5.4667,-35.3667,75.97,81,11,10.49,BR,1624405543
Petropavlovka,50.6114,105.3196,61.21,79,65,1.68,RU,1624405543
Mananjary,-21.2167,48.3333,62.85,89,60,3.69,MG,1624405543
Whitehorse,60.7161,-135.0538,68.77,37,75,5.75,CA,1624405544
Guiratinga,-16.3494,-53.7583,74.61,46,90,4.52,BR,1624405544
Casablanca,33.5928,-7.6192,69.33,64,11,13.0,MA,1624405351
Ilulissat,69.2167,-51.1,48.22,49,0,3.44,GL,1624405544
Gisenyi,-1.7028,29.2564,62.44,80,78,2.59,RW,1624405545
Preobrazheniye,42.9019,133.9064,63.09,62,4,3.98,RU,1624405545
Deniliquin,-35.5333,144.9667,52.0,95,100,13.2,AU,1624405545
Celestún,20.8667,-90.4,85.35,76,83,13.69,MX,1624405546
Acarí,-15.4311,-74.6158,63.99,82,67,4.65,PE,1624405546
Teya,60.3778,92.6267,60.03,60,87,4.92,RU,1624405546
‘Ewa Beach,21.3156,-158.0072,88.02,50,75,8.05,US,1624405547
El Dorado,38.7666,-120.5177,88.92,35,0,1.01,US,1624405547
Burē,10.7,37.0667,56.05,91,65,2.95,ET,1624405547
Mossamedes,-15.1961,12.1522,67.51,87,23,1.74,AO,1624405548
Boden,65.8252,21.6886,51.8,92,18,6.62,SE,1624405548
Madang,-5.2246,145.7966,82.33,78,25,2.42,PG,1624405548
Nicoya,10.1483,-85.452,80.15,90,87,3.65,CR,1624405548
Anadyr,64.75,177.4833,54.1,62,20,6.71,RU,1624405549
Ialibu,-6.2821,143.9935,68.94,52,26,2.73,PG,1624405549
Akdepe,42.0551,59.3788,71.69,26,0,9.73,TM,1624405549
Dornbirn,47.4167,9.7331,66.11,75,20,5.01,AT,1624405550
Tshikapa,-6.4167,20.8,74.77,42,65,1.03,CD,1624405550
Ambon City,-3.6954,128.1814,78.94,89,40,3.44,ID,1624405550
Grand Island,40.925,-98.342,91.35,37,1,11.99,US,1624405551
Zyryanka,65.75,150.85,68.86,38,98,3.62,RU,1624405551
Bilma,18.6853,12.9164,88.66,23,32,8.5,NE,1624405551
Morros,-9.4467,-46.3003,79.88,39,13,3.56,BR,1624405552
Gimli,50.6336,-96.9907,75.06,68,78,3.44,CA,1624405552
Provideniya,64.3833,-173.3,51.91,62,0,8.95,RU,1624405552
Arrondissement de Dreux,48.6667,1.25,55.51,91,96,10.63,FR,1624405553
Tomatlán,19.9333,-105.25,81.19,76,84,9.06,MX,1624405553
Emerald,-23.5333,148.1667,62.74,72,90,4.61,AU,1624405553
Ballina,-28.8667,153.5667,60.98,93,100,8.05,AU,1624405553
Belogorsk,50.9158,128.4611,72.66,69,96,5.97,RU,1624405554
Gouré,13.9835,10.2704,83.01,51,94,3.87,NE,1624405554
Tubualá,9.5167,-79.0333,84.31,81,63,6.06,PA,1624405554
Ust-Nera,64.5667,143.2,61.47,47,69,3.27,RU,1624405555
Batagay-Alyta,67.8006,130.4114,73.4,31,92,2.3,RU,1624405555
Norrtälje,59.758,18.705,58.84,95,100,6.91,SE,1624405556
Dali,25.7,100.1833,65.95,88,90,3.31,CN,1624405556
Baruun-Urt,46.6806,113.2792,70.9,41,100,8.3,MN,1624405556
Fort-Shevchenko,44.5086,50.263,84.4,26,30,22.32,KZ,1624405557
Poum,-20.2333,164.0167,72.16,61,0,16.06,NC,1624405557
Pabradė,55.0,25.7833,73.83,88,49,5.3,LT,1624405557
Rapid Valley,44.0625,-103.1463,91.04,22,1,4.0,US,1624405558
Mount Isa,-20.7333,139.5,69.57,46,48,12.66,AU,1624405558
Souillac,-20.5167,57.5167,77.38,53,40,11.5,MU,1624405558
Kaeo,-35.1,173.7833,61.32,64,2,7.43,NZ,1624405559
Henties Bay,-22.116,14.2845,58.86,85,0,6.62,NA,1624405559
College,64.8569,-147.8028,79.0,41,40,6.91,US,1624405301
San Cristobal,7.7669,-72.225,65.89,90,98,2.06,VE,1624405559
Santa Rosa,14.3122,121.1114,83.1,79,100,4.56,PH,1624405560
Khingansk,49.1167,131.1833,70.25,55,14,5.91,RU,1624405560
Palic,46.1023,19.7635,73.89,61,0,5.75,RS,1624405560
Dārāb,28.7519,54.5444,77.58,8,0,8.41,IR,1624405561
Waihi Beach,-37.4,175.9333,56.28,61,29,5.99,NZ,1624405561
Avera,33.194,-82.5271,80.47,87,100,6.26,US,1624405561
Atar,20.5169,-13.0499,89.98,18,34,13.18,MR,1624405562
Vanimo,-2.6741,141.3028,82.76,73,21,6.11,PG,1624405562
Saldanha,-33.0117,17.9442,55.45,84,100,7.78,ZA,1624405562
Shimokizukuri,40.8061,140.3861,65.25,92,97,4.9,JP,1624405563
Monroe,43.1501,-77.6831,63.18,48,40,11.5,US,1624405454
Riyadh,24.6877,46.7219,93.25,14,0,3.44,SA,1624405563
Saint-Paul,-21.0096,55.2707,64.51,81,19,4.0,RE,1624405563
Bria,6.5423,21.9863,67.77,97,88,2.46,CF,1624405564
Bethel,41.3712,-73.414,62.49,90,100,1.01,US,1624405458
Burnie,-41.0667,145.9167,51.93,89,100,9.71,AU,1624405564
Mahates,10.2329,-75.1899,84.09,87,95,2.71,CO,1624405565
Faya,18.3851,42.4509,71.71,13,0,8.57,SA,1624405565
Matara,5.9485,80.5353,77.07,89,83,7.67,LK,1624405565
Kundiawa,-6.0167,144.9667,76.06,50,5,0.4,PG,1624405566
Saint-Augustin,51.226,-58.6502,56.84,98,100,8.75,CA,1624405566
Hefei,31.8639,117.2808,78.94,83,0,2.24,CN,1624405566
Mayumba,-3.432,10.6554,73.8,88,97,4.97,GA,1624405566
Itoman,26.1247,127.6694,75.22,96,75,10.36,JP,1624405567
Ulaanbaatar,47.9077,106.8832,55.53,82,20,4.47,MN,1624405567
Aklavik,68.2191,-135.0107,63.32,58,75,10.36,CA,1624405567
Dwārka,22.2394,68.9678,84.02,71,35,14.09,IN,1624405568
Caravelas,-17.7125,-39.2481,71.08,81,60,4.63,BR,1624405568
Sabzawār,36.2126,57.6819,74.32,20,0,5.12,IR,1624405568
Walvis Bay,-22.9575,14.5053,59.09,82,0,3.44,NA,1624405569
Haileybury,47.449,-79.6373,55.98,59,99,1.77,CA,1624405569
Moose Factory,51.2585,-80.6094,53.6,82,75,6.91,CA,1624405569
Sitka,57.0531,-135.33,55.29,71,90,3.44,US,1624405570
Pontianak,-0.0333,109.3333,76.98,100,75,3.44,ID,1624405429
Meridian,43.6121,-116.3915,97.65,25,1,5.01,US,1624405504
Solhan,38.9634,41.0293,62.08,38,0,5.08,TR,1624405570
Padang,-0.9492,100.3543,71.65,85,100,5.84,ID,1624405570
Winnemucca,40.973,-117.7357,91.45,14,20,12.66,US,1624405571
Port-Gentil,-0.7193,8.7815,76.96,83,20,5.75,GA,1624405571
Leshukonskoye,64.8989,45.7622,67.32,83,76,3.78,RU,1624405571
Setermoen,68.861,18.3486,48.43,88,44,3.49,NO,1624405572
Sinegor'ye,62.0788,150.477,50.4,72,99,3.42,RU,1624405572
El Salvador,13.8333,-88.9167,80.64,92,75,3.4,SV,1624405462
Kabompo,-13.5927,24.2008,49.98,58,33,5.19,ZM,1624405572
Vogar,63.9832,-22.3874,48.24,87,0,11.5,IS,1624405573
Sibolga,1.7427,98.7792,73.53,86,100,2.91,ID,1624405573
Basco,20.4487,121.9702,83.17,82,100,17.94,PH,1624405573
Gopālpur,19.2667,84.9167,83.97,74,99,9.6,IN,1624405574
Makakilo City,21.3469,-158.0858,86.32,51,75,8.05,US,1624405438
Chegdomyn,51.1167,133.0167,70.36,64,97,2.33,RU,1624405574
Werota,11.9167,37.7,63.66,81,64,1.72,ET,1624405575
Ambovombe,-25.1667,46.0833,61.84,86,0,5.39,MG,1624405575
Huarmey,-10.0681,-78.1522,66.31,82,12,10.51,PE,1624405575
Peremyshlyany,49.6652,24.5585,66.52,89,2,3.56,UA,1624405576
Jizan,17.3333,42.6667,86.94,70,9,2.91,SA,1624405576
Santa Isabel,-23.3156,-46.2214,63.66,95,90,3.49,BR,1624405576
Richland,40.7834,-82.5499,63.97,49,46,0.96,US,1624405577
Sola,-13.8833,167.55,79.7,77,47,17.69,VU,1624405577
Sakakah,29.9697,40.2064,85.57,23,0,5.73,SA,1624405577
Lashio,22.9333,97.75,69.44,98,93,0.87,MM,1624405577
Karratha,-20.7377,116.8463,57.7,49,58,15.05,AU,1624405578
Mariana,-20.3778,-43.4161,61.38,93,61,1.5,BR,1624405578
Bam,29.106,58.357,79.7,8,0,9.98,IR,1624405579
Vila Franca do Campo,37.7167,-25.4333,64.81,84,95,4.88,PT,1624405579
Malbork,54.0359,19.0266,63.88,94,95,5.66,PL,1624405579
Cabo San Lucas,22.8909,-109.9124,93.81,70,31,16.73,MX,1624405580
Simpang,-1.2667,104.0833,74.08,96,67,1.79,ID,1624405580
San Clemente,33.427,-117.612,93.27,79,91,1.01,US,1624405529
Pisco,-13.7,-76.2167,64.45,77,90,8.05,PE,1624405580
Plátanos,37.6667,21.6167,81.7,50,1,3.31,GR,1624405581
São Filipe,14.8961,-24.4956,73.4,82,66,5.93,CV,1624405581
Pangnirtung,66.1451,-65.7125,56.21,35,100,15.66,CA,1624405581
Klaksvík,62.2266,-6.589,47.32,90,100,6.98,FO,1624405581
Japura,-0.3167,102.35,73.08,96,87,2.06,ID,1624405582
Umluj,25.0213,37.2685,86.18,40,3,9.26,SA,1624405582
Saint-Pierre,-21.3393,55.4781,64.08,68,20,8.05,RE,1624405582
Irbit,57.6705,63.071,50.97,96,100,5.06,RU,1624405583
Coquimbo,-29.9533,-71.3436,55.13,82,0,2.3,CL,1624405310
Mackay,-21.15,149.2,72.68,88,75,9.22,AU,1624405583
Shimoda,34.6667,138.95,77.16,76,100,13.13,JP,1624405583
Vao,-22.6667,167.4833,69.04,68,60,20.13,NC,1624405584
Hong Kong,22.2855,114.1577,83.32,87,100,1.01,HK,1624405393
Kerrobert,51.9168,-109.1348,88.0,27,86,10.85,CA,1624405584
Solwezi,-12.1688,26.3894,51.06,70,33,4.0,ZM,1624405584
Leningradskiy,69.3833,178.4167,46.74,61,83,11.16,RU,1624405585
Buta,2.7858,24.73,69.01,99,99,1.03,CD,1624405585
Penne,42.4538,13.9299,74.37,50,0,5.32,IT,1624405585
Lewistown,40.5992,-77.5714,66.15,45,1,5.75,US,1624405586
Yumen,40.2833,97.2,65.68,56,100,17.05,CN,1624405586
Jijiga,9.35,42.8,62.65,74,56,16.42,ET,1624405586
Ruwi,23.5996,58.5507,87.49,60,0,6.22,OM,1624405586
Ratnagiri,16.9833,73.3,79.92,82,85,5.73,IN,1624405587
Wonthaggi,-38.6044,145.5913,59.16,70,100,12.15,AU,1624405587
Conceição da Barra,-18.5933,-39.7322,69.96,81,52,4.16,BR,1624405587
Pundaguitan,6.3711,126.1689,83.26,73,6,1.45,PH,1624405588
Comodoro Rivadavia,-45.8667,-67.5,40.86,93,90,2.3,AR,1624405588
Stryn,61.9045,6.7226,53.15,90,2,2.37,NO,1624405588
Namatanai,-3.6667,152.4333,84.7,68,26,3.24,PG,1624405589
Nhulunbuy,-12.2333,136.7667,83.01,74,40,14.97,AU,1624405589
Kandrian,-6.2167,149.55,82.08,77,28,10.42,PG,1624405589
Portland,45.5234,-122.6762,88.61,48,75,1.99,US,1624405280
Port Pirie,-33.1833,138.0167,51.89,81,96,18.81,AU,1624405590
Shīeli,44.1667,66.75,66.61,34,5,8.25,KZ,1624405590
Santa Cruz de la Sierra,-17.8,-63.1667,68.05,77,40,14.97,BO,1624405399
Lar,26.2039,83.9717,82.85,81,93,8.41,IN,1624405591
Bloemfontein,-29.1211,26.214,40.48,70,35,3.44,ZA,1624405422
Fiditi,7.7136,3.9172,71.29,98,100,3.74,NG,1624405591
Kankaanpää,61.8,22.4167,65.8,99,57,4.83,FI,1624405591
Pokhara,28.2333,83.9833,72.37,86,100,2.71,NP,1624405592
Gizo Government Station,-8.103,156.8419,83.12,78,89,20.85,SB,1624405592
Les Cayes,18.2,-73.75,79.48,85,100,7.72,HT,1624405592
Antalaha,-14.9003,50.2788,69.03,82,62,7.36,MG,1624405593
Humboldt,40.6665,-123.9178,68.38,56,2,7.05,US,1624405593
Mount Forest,43.9795,-80.7221,59.52,41,26,9.22,CA,1624405593
Yelizovo,53.1873,158.3805,64.54,55,40,4.47,RU,1624405594
Salalah,17.0151,54.0924,78.89,94,75,8.05,OM,1624405594
Acapulco de Juárez,16.8634,-99.8901,87.62,70,75,3.44,MX,1624405436
Khasan,42.4308,130.6434,63.84,71,1,1.88,RU,1624405594
Waspán,14.7419,-83.9717,85.68,83,46,6.91,NI,1624405595
Laguna,38.421,-121.4238,95.43,43,1,7.0,US,1624405595
Manadhoo,5.7667,73.3833,81.97,77,100,16.4,MV,1624405595
Bolaños de Calatrava,38.9069,-3.6635,59.68,74,26,4.56,ES,1624405596
Xichang,27.8964,102.2634,65.21,78,100,0.22,CN,1624405596
Halifax,44.6453,-63.5724,70.41,94,83,1.99,CA,1624405563
Zabul Province,32.25,67.25,65.68,11,0,5.5,AF,1624405597
Kunri,25.1785,69.5691,82.89,71,2,15.12,PK,1624405597
Owando,-0.4819,15.8999,69.69,94,97,1.99,CG,1624405597
Álamos,27.0167,-108.9333,90.72,46,64,9.35,MX,1624405597
Qui Nhon,13.7667,109.2333,83.71,68,99,8.16,VN,1624405598
Vuktyl,63.8567,57.3094,49.1,80,29,4.21,RU,1624405598
Nizhnevartovsk,60.9344,76.5531,48.22,87,0,2.24,RU,1624405598
Quatre Cocos,-20.2078,57.7625,77.11,66,70,16.71,MU,1624405599
Oktyabr'skoye,43.0645,44.7417,68.14,88,65,6.71,RU,1624405599
Chaumont,48.1167,5.1333,58.37,93,27,0.78,FR,1624405599
Mercedes,-34.6515,-59.4307,55.85,91,11,8.55,AR,1624405600
Asău,46.4333,26.4,69.4,98,5,4.99,RO,1624405600
Yangi Marg`ilon,40.4272,71.7189,77.72,22,0,13.8,UZ,1624405600
Labuhan,-6.8844,112.2051,77.86,86,85,6.51,ID,1624405601
Gumlā,23.05,84.55,73.36,87,90,3.22,IN,1624405601
Ongandjera,-17.8833,15.0667,56.08,38,1,8.41,NA,1624405601
Hurghada,27.2574,33.8129,86.04,28,0,11.5,EG,1624405602
Jalu,29.0331,21.5482,85.84,28,0,3.31,LY,1624405602
Nantucket,41.2835,-70.0995,68.34,95,87,19.77,US,1624405603
Vostok,46.4856,135.8833,73.11,43,3,3.96,RU,1624405603
Ryōtsu-minato,38.0833,138.4333,66.16,84,68,6.96,JP,1624405603
Sistranda,63.7256,8.834,56.89,82,1,1.36,NO,1624405603
Kaabong,3.4836,34.1492,61.45,78,30,12.1,UG,1624405604
Broken Hill,-31.95,141.4333,56.91,67,90,11.5,AU,1624405604
Salinas,36.6777,-121.6555,80.15,58,1,21.85,US,1624405490
Khani,41.9563,42.9566,62.17,78,57,2.95,GE,1624405604
Ngawi,-7.4038,111.4461,76.26,87,73,3.42,ID,1624405605
Angarsk,52.5367,103.8864,57.92,70,100,4.5,RU,1624405605
Los Llanos de Aridane,28.6585,-17.9182,65.95,83,75,13.8,ES,1624405605
Dergachi,51.2328,48.7659,74.75,58,0,7.07,RU,1624405606
Koygorodok,60.445,50.9968,64.85,78,30,2.44,RU,1624405606
Zolotonosha,49.6689,32.0377,68.0,82,20,6.49,UA,1624405606
San Quintín,30.4833,-115.95,70.38,72,67,11.97,MX,1624405607
Bonavista,48.6499,-53.1147,69.8,79,50,15.32,CA,1624405607
Besskorbnaya,44.6447,41.311,66.16,85,1,2.59,RU,1624405607
Paso de los Toros,-32.8167,-56.5167,52.52,89,0,13.13,UY,1624405608
Karatau,43.1667,70.4667,57.0,44,26,2.77,KZ,1624405608
Smithers,54.7804,-127.1743,73.72,33,20,6.91,CA,1624405425
Barcelos,41.5388,-8.6151,61.84,88,37,7.09,PT,1624405346
